[
  {
    "id": "90d1fa86-77d7-4a21-9818-e338fa6fdb96",
    "name": "583 양조장(583 Brewery)",
    "brewery_type": "brewpub",
    "address_1": "583-8, Uiam-ro",
    "address_2": "Janggye-myeon",
    "address_3": null,
    "city": "Jangsu-gun",
    "state_province": "Jeollabukdo",
    "postal_code": "55621",
    "country": "South Korea",
    "longitude": "127.6205123",
    "latitude": "35.68271721",
    "phone": "063-353-5515",
    "website_url": "http://www.583beer.modoo.at",
    "state": "Jeollabukdo",
    "street": "583-8, Uiam-ro"
  },
  {
    "id": "200b3434-8f97-4a9d-a072-fcb7379b31d5",
    "name": "CRAFTROOT",
    "brewery_type": "brewpub",
    "address_1": "418,Gwangwang-ro",
    "address_2": null,
    "address_3": null,
    "city": "Sokcho-si",
    "state_province": "Gangwondo",
    "postal_code": "24859",
    "country": "South Korea",
    "longitude": "128.5377122",
    "latitude": "38.19724237",
    "phone": "070-8872-1001",
    "website_url": "https://craftroot.co.kr/",
    "state": "Gangwondo",
    "street": "418,Gwangwang-ro"
  },
  {
    "id": "4cc60614-30c4-406a-9fec-c5dc01b22863",
    "name": "Goose Island Brewhouse Seoul",
    "brewery_type": "brewpub",
    "address_1": "118, Yeoksam-ro",
    "address_2": null,
    "address_3": null,
    "city": "Gangnam-gu",
    "state_province": "Seoul",
    "postal_code": "06251",
    "country": "South Korea",
    "longitude": "127.0323206",
    "latitude": "37.49360307",
    "phone": "02-6205-1785",
    "website_url": "https://gooseisland.kr",
    "state": "Seoul",
    "street": "118, Yeoksam-ro"
  }
]
